{
"type": "FeatureCollection",
"crs": { "type": "name", "properties": { "name": "urn:ogc:def:crs:OGC:1.3:CRS84" } },
"features": [
{ "type": "Feature", "properties": { "address": "430, Viamonte, Microcentro, San Nicolás, Buenos Aires, Comuna 1, Ciudad Autónoma de Buenos Aires, C1043AAA, Argentina", "Nombre": "Universidad de Buenos Aires", "Acrónimo": "UBA", "addr": "Viamonte 430, Buenos Aires, Ciudad de Buenos Aires, Argentina", "lon": -58.373122985714282, "lat": -34.599771142857144 }, "geometry": { "type": "Point", "coordinates": [ -58.373122985714282, -34.599771142857144 ] } },
{ "type": "Feature", "properties": { "address": "262, Maipú, Microcentro, San Nicolás, Buenos Aires, Comuna 1, Ciudad Autónoma de Buenos Aires, C1006, Argentina", "Nombre": "Universidad de la Defensa Nacional", "Acrónimo": "UNDEF", "addr": "Maipú 262, Buenos Aires, Ciudad de Buenos Aires, Argentina", "lon": -58.376628783673468, "lat": -34.605138573469389 }, "geometry": { "type": "Point", "coordinates": [ -58.376628783673468, -34.605138573469389 ] } },
{ "type": "Feature", "properties": { "address": "Avenida San Martín, San Emilio, Florencio Varela, Partido de Florencio Varela, Buenos Aires, B1879, Argentina", "Nombre": "Universidad Nacional Arturo Jauretche", "Acrónimo": "UNAJ", "addr": "Av. San Martín 2002, Florencio Varela, Buenos Aires, Argentina", "lon": -58.281357, "lat": -34.774374 }, "geometry": { "type": "Point", "coordinates": [ -58.281357, -34.774374 ] } },
{ "type": "Feature", "properties": { "address": "Esquiú, Jardín, Jorge Bermudez, San Fernando del Valle de Catamarca, Municipio de San Fernando del Valle de Catamarca, Departamento Capital, Catamarca, K4700, Argentina", "Nombre": "Universidad Nacional de Catamarca", "Acrónimo": "UNCa", "addr": "Esquiú 612, Catamarca, Catamarca, Argentina", "lon": -65.7680745, "lat": -28.4658921 }, "geometry": { "type": "Point", "coordinates": [ -65.7680745, -28.4658921 ] } },
{ "type": "Feature", "properties": { "address": "22, 9 de Julio, Barrio Mayo, Chilecito, Departamento Chilecito, La Rioja, 5360, Argentina", "Nombre": "Universidad Nacional de Chilecito", "Acrónimo": "UNChiUNdeC", "addr": "9 de Julio 22, Chilecito, La Rioja, Argentina", "lon": -67.49449570612245, "lat": -29.164946544897958 }, "geometry": { "type": "Point", "coordinates": [ -67.49449570612245, -29.164946544897958 ] } },
{ "type": "Feature", "properties": { "address": "Centro universitario Rivadavia, Jose Hernandez, Bº San Isidro Sur, Rivadavia, Distrito Ciudad de Rivadavia, Departamento Rivadavia, Mendoza, 5577, Argentina", "Nombre": "Universidad Nacional de Cuyo", "Acrónimo": "UNCuUNCuyo", "addr": "Centro Universitario, Mendoza, Mendoza, Argentina", "lon": -68.4726869, "lat": -33.2015825 }, "geometry": { "type": "Point", "coordinates": [ -68.4726869, -33.2015825 ] } },
{ "type": "Feature", "properties": { "address": "Universidad Nacional de José Clemante Paz, 4731, Leandro N. Alem, Piñero, José C. Paz, Partido de José C. Paz, Buenos Aires, B1665, Argentina", "Nombre": "Universidad Nacional de José C. Paz", "Acrónimo": "UNJPUNPAZ", "addr": "Leandro N. Alem 4731, José C. Paz, Buenos Aires, Argentina", "lon": -58.745252383992614, "lat": -34.5211676 }, "geometry": { "type": "Point", "coordinates": [ -58.745252383992614, -34.5211676 ] } },
{ "type": "Feature", "properties": { "address": "Avenida Bolivia, Regimiento de Infanteria de Montaña 20 \"Cazadores de los Andes\", ASENTAMIENTO ANGOLA - HUAICO, Municipio de San Salvador de Jujuy, Departamento Doctor Manuel Belgrano, Jujuy, Y4600AXO, Argentina", "Nombre": "Universidad Nacional de Jujuy", "Acrónimo": "UNJu", "addr": "Av. Bolivia 1239, San Salvador de Jujuy, Jujuy, Argentina", "lon": -65.3219367, "lat": -24.1810593 }, "geometry": { "type": "Point", "coordinates": [ -65.3219367, -24.1810593 ] } },
{ "type": "Feature", "properties": { "address": "1903, Florencio Varela, San Justo, Partido de La Matanza, Buenos Aires, 1754, Argentina", "Nombre": "Universidad Nacional de La Matanza", "Acrónimo": "UNLMUNLaM", "addr": "Florencio Varela 1903, San Justo, Buenos Aires, Argentina", "lon": -58.562877, "lat": -34.6701103 }, "geometry": { "type": "Point", "coordinates": [ -58.562877, -34.6701103 ] } },
{ "type": "Feature", "properties": { "address": "Universidad Nacional de La Pampa, 353, Coronel Gil, RTC Z2, Centro, Santa Rosa, Municipio de Santa Rosa, Departamento Capital, La Pampa, L6300, Argentina", "Nombre": "Universidad Nacional de La Pampa", "Acrónimo": "UNLPam", "addr": "Coronel Gil 353, Santa Rosa, La Pampa, Argentina", "lon": -64.289423368680247, "lat": -36.6204169 }, "geometry": { "type": "Point", "coordinates": [ -64.289423368680247, -36.6204169 ] } },
{ "type": "Feature", "properties": { "address": "Lisandro de la Torre, Gregores, Río Gallegos, Municipio de Río Gallegos, Güer Aike, Santa Cruz, 9400, Argentina", "Nombre": "Universidad Nacional de la Patagonia Austral", "Acrónimo": "UNPA", "addr": "Lisandro de la Torre 1070, Río Gallegos, Santa Cruz, Argentina", "lon": -69.2344651, "lat": -51.6201484 }, "geometry": { "type": "Point", "coordinates": [ -69.2344651, -51.6201484 ] } },
{ "type": "Feature", "properties": { "address": "Universidad Nacional de las Artes, 1129, Azcuénaga, Barrio Norte, Recoleta, Buenos Aires, Comuna 2, Ciudad Autónoma de Buenos Aires, C1115AAG, Argentina", "Nombre": "Universidad Nacional de las Artes", "Acrónimo": "UNA", "addr": "Azcuénaga 1129, Buenos Aires, Ciudad de Buenos Aires, Argentina", "lon": -58.399551104063164, "lat": -34.59480565 }, "geometry": { "type": "Point", "coordinates": [ -58.399551104063164, -34.59480565 ] } },
{ "type": "Feature", "properties": { "address": "Poeta Agüero, Barrio San Agustín, Villa de Merlo, Municipio de Merlo, Junín, San Luis, 5881, Argentina", "Nombre": "Universidad Nacional de los Comechingones", "Acrónimo": "UNLC", "addr": "Poeta Agüero 380, Villa de Merlo, San Luis, Argentina", "lon": -65.0160208, "lat": -32.3471518 }, "geometry": { "type": "Point", "coordinates": [ -65.0160208, -32.3471518 ] } },
{ "type": "Feature", "properties": { "address": "Avenida Bartolomé Mitre, El Obrero, Moreno Centro sur, Moreno, Partido de Moreno, Buenos Aires, B1744, Argentina", "Nombre": "Universidad Nacional de Moreno", "Acrónimo": "UNMUNMo", "addr": "Av. Bartolomé Mitre 1891, Moreno, Buenos Aires, Argentina", "lon": -58.7931645, "lat": -34.6481359 }, "geometry": { "type": "Point", "coordinates": [ -58.7931645, -34.6481359 ] } },
{ "type": "Feature", "properties": { "address": "Universidad Nacional de Quilmes, 352, Roque Sáenz Peña, Bernal Este, Bernal, Partido de Quilmes, Buenos Aires, 1876, Argentina", "Nombre": "Universidad Nacional de Quilmes", "Acrónimo": "UNQ", "addr": "Roque Sáenz Peña 352, Quilmes, Buenos Aires, Argentina", "lon": -58.278520663676829, "lat": -34.70638115 }, "geometry": { "type": "Point", "coordinates": [ -58.278520663676829, -34.70638115 ] } },
{ "type": "Feature", "properties": { "address": "Universidad Nacional de Río Negro, 450, Colón, Centro, Viedma, Municipio de Viedma, Departamento Adolfo Alsina, Río Negro, 8500, Argentina", "Nombre": "Universidad Nacional de Río Negro", "Acrónimo": "UNRN", "addr": "Colón 450, Viedma, Río Negro, Argentina", "lon": -62.9916847, "lat": -40.810034 }, "geometry": { "type": "Point", "coordinates": [ -62.9916847, -40.810034 ] } },
{ "type": "Feature", "properties": { "address": "Córdoba, Alberto Olmedo, Distrito Centro, Rosario, Municipio de Rosario, Gran Rosario, Departamento Rosario, Santa Fe, S2002, Argentina", "Nombre": "Universidad Nacional de Rosario", "Acrónimo": "UNR", "addr": "Córdoba 181, Rosario, Santa Fe, Argentina", "lon": -60.6642044, "lat": -32.9417837 }, "geometry": { "type": "Point", "coordinates": [ -60.6642044, -32.9417837 ] } },
{ "type": "Feature", "properties": { "address": "Universidad Nacional de Salta - Campo General San Martín, 5150, Avenida Bolivia, U.N.Sa., Bº El Parque, Salta, Municipio de Salta, Capital, Salta, 4400, Argentina", "Nombre": "Universidad Nacional de Salta", "Acrónimo": "UNSa", "addr": "Av. Bolivia 5150, Salta, Salta, Argentina", "lon": -65.407633349295963, "lat": -24.72713325 }, "geometry": { "type": "Point", "coordinates": [ -65.407633349295963, -24.72713325 ] } },
{ "type": "Feature", "properties": { "address": "Mitre, Barrio Los Olivos Fontana, Villa Krause, Rawson, San Juan, J5425, Argentina", "Nombre": "Universidad Nacional de San Juan", "Acrónimo": "UNSJ", "addr": "Mitre 396 E, San Juan, San Juan, Argentina", "lon": -68.5401612, "lat": -31.5788321 }, "geometry": { "type": "Point", "coordinates": [ -68.5401612, -31.5788321 ] } },
{ "type": "Feature", "properties": { "address": "Ejército De Los Andes, Barrio Loma Verde, Distrito San Roque, Departamento Maipú, Mendoza, 5587, Argentina", "Nombre": "Universidad Nacional de San Luis", "Acrónimo": "UNSL", "addr": "Ejército de los Andes 950, San Luis, San Luis, Argentina", "lon": -68.5957902, "lat": -33.02817 }, "geometry": { "type": "Point", "coordinates": [ -68.5957902, -33.02817 ] } },
{ "type": "Feature", "properties": { "address": "689, Avenida Güiraldes, San Antonio de Areco, Partido de San Antonio de Areco, Buenos Aires, B2760CVM, Argentina", "Nombre": "Universidad Nacional de San Antonio de Areco", "Acrónimo": "UNSAdA", "addr": "Av. Güiraldes 689, San Antonio de Areco, Buenos Aires, Argentina", "lon": -59.479688070833326, "lat": -34.257203654166666 }, "geometry": { "type": "Point", "coordinates": [ -59.479688070833326, -34.257203654166666 ] } },
{ "type": "Feature", "properties": { "address": "Avenida Belgrano, Centro, La Banda, Departamento Banda, Santiago del Estero, G4300, Argentina", "Nombre": "Universidad Nacional de Santiago del Estero", "Acrónimo": "UNSE", "addr": "Av. Belgrano 1912, Santiago del Estero, Santiago del Estero, Argentina", "lon": -64.2456893, "lat": -27.7367964 }, "geometry": { "type": "Point", "coordinates": [ -64.2456893, -27.7367964 ] } },
{ "type": "Feature", "properties": { "address": "Fuegia Basket, Belgrano, Ushuaia, Departamento Ushuaia, Tierra del Fuego, 1257, Argentina", "Nombre": "Universidad Nacional de Tierra del Fuego, Antártida e Islas del Atlántico Sur", "Acrónimo": "UNTDF", "addr": "Fuegia Basket 251, Ushuaia, Tierra del Fuego, Argentina", "lon": -68.3417132, "lat": -54.8212968 }, "geometry": { "type": "Point", "coordinates": [ -68.3417132, -54.8212968 ] } },
{ "type": "Feature", "properties": { "address": "UNTREF - Sede Rectorado, 2736, 414 - General Enrique Mosconi, Sáenz Peña, Partido de Tres de Febrero, Buenos Aires, 1674, Argentina", "Nombre": "Universidad Nacional de Tres de Febrero", "Acrónimo": "UNTREF", "addr": "Mosconi 2736, Saenz Peña, Buenos Aires, Argentina", "lon": -58.528242648757001, "lat": -34.6016911 }, "geometry": { "type": "Point", "coordinates": [ -58.528242648757001, -34.6016911 ] } },
{ "type": "Feature", "properties": { "address": "Rectorado Universidad Nacional de Tucumán, 491, Ayacucho, Barrio Sur, San Miguel de Tucumán, Departamento Capital, Tucumán, 4000, Argentina", "Nombre": "Universidad Nacional de Tucumán", "Acrónimo": "UNT", "addr": "Ayacucho 491, San Miguel de Tucumán, Tucumán, Argentina", "lon": -65.2112221, "lat": -26.8363916 }, "geometry": { "type": "Point", "coordinates": [ -65.2112221, -26.8363916 ] } },
{ "type": "Feature", "properties": { "address": "1425, Entre Ríos, Centro Sur, Villa María, Municipio de Villa María, Pedanía Villa María, Departamento General San Martín, Córdoba, X5900, Argentina", "Nombre": "Universidad Nacional de Villa María", "Acrónimo": "UNVM", "addr": "Entre Ríos 1425, Villa María, Córdoba, Argentina", "lon": -63.238197536734695, "lat": -32.410726697959184 }, "geometry": { "type": "Point", "coordinates": [ -63.238197536734695, -32.410726697959184 ] } },
{ "type": "Feature", "properties": { "address": "Las Heras, Teodoro Fels, Villa Mercedes, Municipio de Villa Mercedes, General Pedernera, San Luis, D5730, Argentina", "Nombre": "Universidad Nacional de Villa Mercedes", "Acrónimo": "UNViMe", "addr": "Las Heras 383, Villa Mercedes, San Luis, Argentina", "lon": -65.4637903, "lat": -33.6660576 }, "geometry": { "type": "Point", "coordinates": [ -65.4637903, -33.6660576 ] } },
{ "type": "Feature", "properties": { "address": "Universidad Nacional del Comahue, 1400, Buenos Aires, Área Centro Este, Neuquén, Municipio de Neuquén, Departamento Confluencia, Neuquén, Q8300, Argentina", "Nombre": "Universidad Nacional del Comahue", "Acrónimo": "UNCOMAUNCo", "addr": "Buenos Aires 1400, Neuquén, Neuquén, Argentina", "lon": -68.050336515045558, "lat": -38.9394882 }, "geometry": { "type": "Point", "coordinates": [ -68.050336515045558, -38.9394882 ] } },
{ "type": "Feature", "properties": { "address": "Rectorado UNNE, 868, 25 de Mayo, Barrio Deportes, Seccional 1°, Corrientes, Departamento Capital, Corrientes, 3400, Argentina", "Nombre": "Universidad Nacional del Nordeste", "Acrónimo": "UNNE", "addr": "25 de Mayo 868, Corrientes, Corrientes, Argentina", "lon": -58.839428017463234, "lat": -27.4641221 }, "geometry": { "type": "Point", "coordinates": [ -58.839428017463234, -27.4641221 ] } },
{ "type": "Feature", "properties": { "address": "369, General Manuel Belgrano, San Antonio de Padua, Partido de Merlo, Buenos Aires, 1718, Argentina", "Nombre": "Universidad Nacional del Oeste", "Acrónimo": "UNO", "addr": "Belgrano 369, San Antonio de Padua, Buenos Aires, Argentina", "lon": -58.699861720408158, "lat": -34.665394869387754 }, "geometry": { "type": "Point", "coordinates": [ -58.699861720408158, -34.665394869387754 ] } },
{ "type": "Feature", "properties": { "address": "Universidad Nacional del Sur, 1253, Avenida Alem, Centro Norte, Bahía Blanca, Partido de Bahía Blanca, Buenos Aires, B8000, Argentina", "Nombre": "Universidad Nacional del Sur", "Acrónimo": "UNS", "addr": "Av. Alem 1253, Bahía Blanca, Buenos Aires, Argentina", "lon": -62.269364406233876, "lat": -38.7014172 }, "geometry": { "type": "Point", "coordinates": [ -62.269364406233876, -38.7014172 ] } },
{ "type": "Feature", "properties": { "address": "Rectorado Universidad Tecnológica Nacional, 440, Sarmiento, Microcentro, San Nicolás, Buenos Aires, Comuna 1, Ciudad Autónoma de Buenos Aires, 1041, Argentina", "Nombre": "Universidad Tecnológica Nacional", "Acrónimo": "UTN", "addr": "Sarmiento 440, Buenos Aires, Ciudad de Buenos Aires, Argentina", "lon": -58.372991407074167, "lat": -34.604629 }, "geometry": { "type": "Point", "coordinates": [ -58.372991407074167, -34.604629 ] } }
]
}
